[
 {
  "name": "ศาลฎีกา",
  "latitude": "13.754422325737679", 
  "longitude": "100.49446498368049",
  "address": "ศาลฎีกา ถนนราชดำเนินใน เขตพระนคร กรุงเทพฯ 10200", 
  "phone": "022203456",
  },
  {
  "name": "ศาลอุทธรณ์",
  "latitude": "13.812680694952412", 
  "longitude": "100.57477491968152",
  "address": "อาคารศาลอุทธรณ์ ถนนรัชดาภิเษก แขวงจอมพล เขตจตุจักร กรุงเทพฯ 10900", 
  "phone": "025412436",
  },
  {
  "name": "ศาลอาญา",
  "latitude": "13.816328159594093",
  "longitude":"100.57494843562874",
  "address": "อาคารศาลอาญา ถนนรัชดาภิเษก แขวงจอมพล เขตจตุจักร กรุงเทพฯ 10900",
  "phone": "025412284-90",
  },
  {
  "name": "ศาลแพ่ง",
  "latitude": "13.814036677469646", 
  "longitude": "100.5746992039056", 
  "address": "อาคารศาลแพ่ง ถนนรัชดาภิเษก แขวงจอมพล เขตจตุจักร กรุงเทพฯ 10900",
  "phone": "025412420",
  },
  {
  "name": "ศาลอาญากรุงเทพใต้",
  "latitude": "13.71378660407468", 
  "longitude": "100.51480549717279", 
  "address": "1721/1 ถนนเจริญกรุง 63 แขวงยานนาวา เขตสาทร กรุงเทพฯ 10120",
  "phone": "022109200",
  },
  {
  "name": "ศาลอาญาธนบุรี",
  "latitude": "13.686351947020398", 
  "longitude": "100.44567782415793", 
  "address": "ถนนเอกชัย แขวงบางขุนเทียน เขตจอมทอง กรุงเทพมหานคร 10150",
  "phone": "024167246",
  },
  {
  "name": "ศาลแพ่งกรุงเทพใต้",
  "latitude": "13.713773950062185", 
  "longitude": "100.51430578182975", 
  "address": "1721/1 ถนนเจริญกรุง 63 แขวงยานนาวา เขตสาทร กรุงเทพฯ 10120",
  "phone": "022104363",
  },
  {
  "name": "ศาลแพ่งธนบุรี",
  "latitude": "13.686607174176203", 
  "longitude": "100.44613056833666", 
  "address": "123 ถนนเอกชัย แขวงบางขุนเทียน เขตจอมทอง กรุงเทพมหานคร 10150",
  "phone": "024150040",
  },
  {
  "name": "ศาลแพ่งตลิ่งชัน",
  "latitude": "13.79768085230449", 
  "longitude": "100.42940355484527", 
  "address": "88 หมู่ 5 ถนนทุ่งมังกร แขวงฉิมพลี เขตตลิ่งชัน กรุงเทพมหานคร 10170",
  "phone": "024488008",
  },
  {
  "name": "ศาลอาญาตลิ่งชัน",
  "latitude": "13.79775419073035", 
  "longitude": "100.42926801066653", 
  "address": "88 ม.5 ถ.ทุ่งมังกร แขวงฉิมพลี เขตตลิ่งชัน กรุงเทพฯ 10170",
  "phone": "024484600",
  },
  {
  "name": "ศาลแพ่งพระโขนง",
  "latitude": "13.675828330467118", 
  "longitude": "100.59263312785839", 
  "address": "379 ถนนสรรพาวุธ แขวงบางนาใต้ เขตบางนา กรุงเทพฯ 10260",
  "phone": "027455901-9",
  },
  {
  "name": "ศาลอาญาพระโขนง",
  "latitude": "13.675705908516239", 
  "longitude": "100.592768510665", 
  "address": "ศาลอาญาพระโขนง เลขที่ 379 ถนนสรรพาวุธ แขวงบางนาใต้ เขตบางนา กรุงเทพฯ 10260",
  "phone": "021835423",
  },
  {
  "name": "ศาลแพ่งมีนบุรี",
  "latitude": "13.814565245197716", 
  "longitude": "100.73252141251699", 
  "address": "335 ถนนสีหบุรานุกิจ แขวงมีนบุรี เขตมีนบุรี กรุงเทพมหานคร",
  "phone": "021714114",
  },
  {
  "name": "ศาลอาญามีนบุรี",
  "latitude": "13.814565245197716", 
  "longitude": "100.73252141251699", 
  "address": "335 ถนนสีหบุรานุกิจ แขวงมีนบุรี เขตมีนบุรี กรุงเทพมหานคร",
  "phone": "021714162",
  }
  
]
